<?xml version="1.0" encoding="utf-8"?>
<ArrayOfVolunteer xmlns:xsi="http://www.w3.org/2001/XMLSchema-instance" xmlns:xsd="http://www.w3.org/2001/XMLSchema">
  <Volunteer>
    <Id>295874473</Id>
    <FullName>Hadas Shay</FullName>
    <Phone>0585749819</Phone>
    <Email>HadasShay@gmail.com</Email>
    <Password>VUvfA|w6</Password>
    <FullAdress>ananas 66</FullAdress>
    <Latitude>-0.6224739353457807</Latitude>
    <longtitude>-136.5019565639395</longtitude>
    <Role>volunteer</Role>
    <IsActive>false</IsActive>
    <MaxDistance>54</MaxDistance>
    <DistanceType>walkDistance</DistanceType>
  </Volunteer>
  <Volunteer>
    <Id>394513220</Id>
    <FullName>Shira Or</FullName>
    <Phone>0536061493</Phone>
    <Email>ShiraOr@gmail.com</Email>
    <Password>zU87'SAh</Password>
    <FullAdress>kiwi 46</FullAdress>
    <Latitude>-45.752273200735985</Latitude>
    <longtitude>60.81854540816511</longtitude>
    <Role>volunteer</Role>
    <IsActive>true</IsActive>
    <MaxDistance>59</MaxDistance>
    <DistanceType>airDistance</DistanceType>
  </Volunteer>
  <Volunteer>
    <Id>321340291</Id>
    <FullName>Daniel Zohar</FullName>
    <Phone>0532280075</Phone>
    <Email>DanielZohar@gmail.com</Email>
    <Password>vy,DfD9f</Password>
    <FullAdress>apple 21</FullAdress>
    <Latitude>50.267644238172835</Latitude>
    <longtitude>25.33763153718067</longtitude>
    <Role>volunteer</Role>
    <IsActive>false</IsActive>
    <MaxDistance>66</MaxDistance>
    <DistanceType>walkDistance</DistanceType>
  </Volunteer>
  <Volunteer>
    <Id>276980778</Id>
    <FullName>David Mor</FullName>
    <Phone>0580291686</Phone>
    <Email>DavidMor@gmail.com</Email>
    <Password>I9Pk#,Rh</Password>
    <FullAdress>cherry 10</FullAdress>
    <Latitude>0.47514154224499805</Latitude>
    <longtitude>-52.635669745867304</longtitude>
    <Role>volunteer</Role>
    <IsActive>true</IsActive>
    <MaxDistance>75</MaxDistance>
    <DistanceType>driveDistance</DistanceType>
  </Volunteer>
  <Volunteer>
    <Id>328183934</Id>
    <FullName>yael bloch</FullName>
    <Phone>0548440911</Phone>
    <Email>Yaelbloch2023@gmail.com</Email>
    <Password>[cgnB4245</Password>
    <FullAdress>moshe zilberg 32</FullAdress>
    <Latitude>31.7610773</Latitude>
    <longtitude>35.1854477</longtitude>
    <Role>volunteer</Role>
    <IsActive>true</IsActive>
    <MaxDistance>32</MaxDistance>
    <DistanceType>driveDistance</DistanceType>
  </Volunteer>
  <Volunteer>
    <Id>390709137</Id>
    <FullName>Yael Bar</FullName>
    <Phone>0522655811</Phone>
    <Email>YaelBar@gmail.com</Email>
	<Password>[cgnB4245</Password>
    <FullAdress>mango 32</FullAdress>
    <Latitude>54.9394845</Latitude>
    <longtitude>23.8920115</longtitude>
    <Role>manager</Role>
    <IsActive>true</IsActive>
	 <MaxDistance>10</MaxDistance>
    <DistanceType>walkDistance</DistanceType>
  </Volunteer>
</ArrayOfVolunteer>