<?xml version="1.0" encoding="utf-8"?>
<ArrayOfVolunteer xmlns:xsi="http://www.w3.org/2001/XMLSchema-instance" xmlns:xsd="http://www.w3.org/2001/XMLSchema">
  <Volunteer>
    <Id>364067959</Id>
    <FullName>Yael Bar</FullName>
    <Phone>0508012901</Phone>
    <Email>YaelBar@gmail.com</Email>
    <Password>o#Gw3PY&amp;</Password>
    <FullAdress>הרצל 1, תל אביב</FullAdress>
    <Latitude>32.070446</Latitude>
    <longtitude>34.794667</longtitude>
    <Role>manager</Role>
    <IsActive>true</IsActive>
    <MaxDistance>50</MaxDistance>
    <DistanceType>walkDistance</DistanceType>
  </Volunteer>
  <Volunteer>
    <Id>239428717</Id>
    <FullName>Racheli Tal </FullName>
    <Phone>0527069284</Phone>
    <Email>RacheliTal@gmail.com</Email>
    <Password>7O8oe&amp;\F</Password>
    <FullAdress>שדרות רוטשילד 16, תל אביב</FullAdress>
    <Latitude>32.062819</Latitude>
    <longtitude>34.774061</longtitude>
    <Role>volunteer</Role>
    <IsActive>true</IsActive>
    <MaxDistance>51</MaxDistance>
    <DistanceType>driveDistance</DistanceType>
  </Volunteer>
  <Volunteer>
    <Id>238832224</Id>
    <FullName>Hadas Shay</FullName>
    <Phone>0541414189</Phone>
    <Email>HadasShay@gmail.com</Email>
    <Password>qn9(WA';</Password>
    <FullAdress>בן גוריון 22, רמת גן</FullAdress>
    <Latitude>32.084027</Latitude>
    <longtitude>34.812335</longtitude>
    <Role>volunteer</Role>
    <IsActive>false</IsActive>
    <MaxDistance>54</MaxDistance>
    <DistanceType>walkDistance</DistanceType>
  </Volunteer>
  <Volunteer>
    <Id>384879524</Id>
    <FullName>Shira Or</FullName>
    <Phone>0592143576</Phone>
    <Email>ShiraOr@gmail.com</Email>
    <Password>8(6B8Ls{</Password>
    <FullAdress>דרך חיפה 101, חיפה</FullAdress>
    <Latitude>32.811834</Latitude>
    <longtitude>34.983419</longtitude>
    <Role>volunteer</Role>
    <IsActive>true</IsActive>
    <MaxDistance>59</MaxDistance>
    <DistanceType>airDistance</DistanceType>
  </Volunteer>
  <Volunteer>
    <Id>281318758</Id>
    <FullName>Daniel Zohar</FullName>
    <Phone>0536475585</Phone>
    <Email>DanielZohar@gmail.com</Email>
    <Password>y,R6M,[p</Password>
    <FullAdress>ויצמן 19, כפר סבא</FullAdress>
    <Latitude>32.174547</Latitude>
    <longtitude>34.905562</longtitude>
    <Role>volunteer</Role>
    <IsActive>false</IsActive>
    <MaxDistance>66</MaxDistance>
    <DistanceType>walkDistance</DistanceType>
  </Volunteer>
  <Volunteer>
    <Id>316514041</Id>
    <FullName>David Mor</FullName>
    <Phone>0545949926</Phone>
    <Email>DavidMor@gmail.com</Email>
    <Password>ADno;H:W</Password>
    <FullAdress>שדרות הנשיא 15, חיפה</FullAdress>
    <Latitude>32.80246</Latitude>
    <longtitude>34.985614</longtitude>
    <Role>volunteer</Role>
    <IsActive>true</IsActive>
    <MaxDistance>75</MaxDistance>
    <DistanceType>driveDistance</DistanceType>
  </Volunteer>
</ArrayOfVolunteer>