<?xml version="1.0" encoding="utf-8"?>
<ArrayOfVolunteer xmlns:xsi="http://www.w3.org/2001/XMLSchema-instance" xmlns:xsd="http://www.w3.org/2001/XMLSchema">
  <Volunteer>
    <Id>328183934</Id>
    <FullName>Yael Bloch</FullName>
    <Phone>0534183542</Phone>
    <Email>yaelbloch2023@gmail.com</Email>
    <Password>[cgnB424</Password>
    <FullAdress>moshe zilberg 32</FullAdress>
    <Latitude>31.762107245509604</Latitude>
    <longtitude>35.1859516513024</longtitude>
    <Role>manager</Role>
    <IsActive>true</IsActive>
    <MaxDistance>100</MaxDistance>
    <DistanceType>driveDistance</DistanceType>
  </Volunteer>
  <Volunteer>
    <Id>321226227</Id>
    <FullName>Lea Bloch</FullName>
    <Phone>0548440911</Phone>
    <Email>lea@smileart.co.il</Email>
    <Password>[cgnB424</Password>
    <FullAdress>moshe zilberg 30</FullAdress>
    <Latitude>31.76146873975337</Latitude>
    <longtitude>35.18567807502385</longtitude>
    <Role>volunteer</Role>
    <IsActive>true</IsActive>
    <MaxDistance>100</MaxDistance>
    <DistanceType>airDistance</DistanceType>
  </Volunteer>
  <Volunteer>
    <Id>379475627</Id>
    <FullName>Yael Bar</FullName>
    <Phone>0539584607</Phone>
    <Email>YaelBar@gmail.com</Email>
    <Password>#[2:9qs\</Password>
    <FullAdress>הרצל 1, תל אביב</FullAdress>
    <Latitude>32.070446</Latitude>
    <longtitude>34.794667</longtitude>
    <Role>volunteer</Role>
    <IsActive>false</IsActive>
    <MaxDistance>50</MaxDistance>
    <DistanceType>walkDistance</DistanceType>
  </Volunteer>
  <Volunteer>
    <Id>263984395</Id>
    <FullName>Racheli Tal </FullName>
    <Phone>0524902546</Phone>
    <Email>RacheliTal@gmail.com</Email>
    <Password>YPA6(GzC</Password>
    <FullAdress>שדרות רוטשילד 16, תל אביב</FullAdress>
    <Latitude>32.062819</Latitude>
    <longtitude>34.774061</longtitude>
    <Role>volunteer</Role>
    <IsActive>true</IsActive>
    <MaxDistance>51</MaxDistance>
    <DistanceType>driveDistance</DistanceType>
  </Volunteer>
  <Volunteer>
    <Id>237936869</Id>
    <FullName>Hadas Shay</FullName>
    <Phone>0590188923</Phone>
    <Email>HadasShay@gmail.com</Email>
    <Password>CO4c;w,F</Password>
    <FullAdress>בן גוריון 22, רמת גן</FullAdress>
    <Latitude>32.084027</Latitude>
    <longtitude>34.812335</longtitude>
    <Role>volunteer</Role>
    <IsActive>false</IsActive>
    <MaxDistance>54</MaxDistance>
    <DistanceType>walkDistance</DistanceType>
  </Volunteer>
  <Volunteer>
    <Id>393710017</Id>
    <FullName>Shira Or</FullName>
    <Phone>0539778546</Phone>
    <Email>ShiraOr@gmail.com</Email>
    <Password>rHtFrA:p</Password>
    <FullAdress>דרך חיפה 101, חיפה</FullAdress>
    <Latitude>32.811834</Latitude>
    <longtitude>34.983419</longtitude>
    <Role>volunteer</Role>
    <IsActive>true</IsActive>
    <MaxDistance>59</MaxDistance>
    <DistanceType>airDistance</DistanceType>
  </Volunteer>
  <Volunteer>
    <Id>248051930</Id>
    <FullName>Daniel Zohar</FullName>
    <Phone>0583416849</Phone>
    <Email>DanielZohar@gmail.com</Email>
    <Password>cSV7FHA5</Password>
    <FullAdress>ויצמן 19, כפר סבא</FullAdress>
    <Latitude>32.174547</Latitude>
    <longtitude>34.905562</longtitude>
    <Role>volunteer</Role>
    <IsActive>false</IsActive>
    <MaxDistance>66</MaxDistance>
    <DistanceType>walkDistance</DistanceType>
  </Volunteer>
  <Volunteer>
    <Id>287932941</Id>
    <FullName>David Mor</FullName>
    <Phone>0573284669</Phone>
    <Email>DavidMor@gmail.com</Email>
    <Password>47Y,RJym</Password>
    <FullAdress>שדרות הנשיא 15, חיפה</FullAdress>
    <Latitude>32.80246</Latitude>
    <longtitude>34.985614</longtitude>
    <Role>volunteer</Role>
    <IsActive>true</IsActive>
    <MaxDistance>75</MaxDistance>
    <DistanceType>driveDistance</DistanceType>
  </Volunteer>
</ArrayOfVolunteer>