<?xml version="1.0" encoding="utf-8"?>
<ArrayOfVolunteer xmlns:xsi="http://www.w3.org/2001/XMLSchema-instance" xmlns:xsd="http://www.w3.org/2001/XMLSchema">
  <Volunteer>
    <Id>321226227</Id>
    <FullName>Lea Bloch</FullName>
    <Phone>0548440911</Phone>
    <Email>lea@smileart.co.il</Email>
    <Password>[cgnB424</Password>
    <FullAdress>moshe zilberg 30</FullAdress>
    <Latitude>31.76146873975337</Latitude>
    <longtitude>35.18567807502385</longtitude>
    <Role>volunteer</Role>
    <IsActive>true</IsActive>
    <MaxDistance>100</MaxDistance>
    <DistanceType>airDistance</DistanceType>
  </Volunteer>
  <Volunteer>
    <Id>381095231</Id>
    <FullName>Yael Bar</FullName>
    <Phone>0514786935</Phone>
    <Email>YaelBar@gmail.com</Email>
    <Password>,Z;,uHqr</Password>
    <FullAdress>הרצל 1, תל אביב</FullAdress>
    <Latitude>32.070446</Latitude>
    <longtitude>34.794667</longtitude>
    <Role>volunteer</Role>
    <IsActive>false</IsActive>
    <MaxDistance>50</MaxDistance>
    <DistanceType>walkDistance</DistanceType>
  </Volunteer>
  <Volunteer>
    <Id>223598012</Id>
    <FullName>Racheli Tal </FullName>
    <Phone>0596104711</Phone>
    <Email>RacheliTal@gmail.com</Email>
    <Password>BF(3x6AJ</Password>
    <FullAdress>שדרות רוטשילד 16, תל אביב</FullAdress>
    <Latitude>32.062819</Latitude>
    <longtitude>34.774061</longtitude>
    <Role>volunteer</Role>
    <IsActive>true</IsActive>
    <MaxDistance>51</MaxDistance>
    <DistanceType>driveDistance</DistanceType>
  </Volunteer>
  <Volunteer>
    <Id>251711073</Id>
    <FullName>Hadas Shay</FullName>
    <Phone>0530965481</Phone>
    <Email>HadasShay@gmail.com</Email>
    <Password>(MptO42Q</Password>
    <FullAdress>בן גוריון 22, רמת גן</FullAdress>
    <Latitude>32.084027</Latitude>
    <longtitude>34.812335</longtitude>
    <Role>volunteer</Role>
    <IsActive>false</IsActive>
    <MaxDistance>54</MaxDistance>
    <DistanceType>walkDistance</DistanceType>
  </Volunteer>
  <Volunteer>
    <Id>362976185</Id>
    <FullName>Shira Or</FullName>
    <Phone>0543934412</Phone>
    <Email>ShiraOr@gmail.com</Email>
    <Password>z4'xI{u|</Password>
    <FullAdress>דרך חיפה 101, חיפה</FullAdress>
    <Latitude>32.811834</Latitude>
    <longtitude>34.983419</longtitude>
    <Role>volunteer</Role>
    <IsActive>true</IsActive>
    <MaxDistance>59</MaxDistance>
    <DistanceType>airDistance</DistanceType>
  </Volunteer>
  <Volunteer>
    <Id>218898989</Id>
    <FullName>Daniel Zohar</FullName>
    <Phone>0569269279</Phone>
    <Email>DanielZohar@gmail.com</Email>
    <Password>R':mgT9q</Password>
    <FullAdress>ויצמן 19, כפר סבא</FullAdress>
    <Latitude>32.174547</Latitude>
    <longtitude>34.905562</longtitude>
    <Role>volunteer</Role>
    <IsActive>false</IsActive>
    <MaxDistance>66</MaxDistance>
    <DistanceType>walkDistance</DistanceType>
  </Volunteer>
  <Volunteer>
    <Id>306109331</Id>
    <FullName>David Mor</FullName>
    <Phone>0549724547</Phone>
    <Email>DavidMor@gmail.com</Email>
    <Password>s2PtN,Js</Password>
    <FullAdress>שדרות הנשיא 15, חיפה</FullAdress>
    <Latitude>32.80246</Latitude>
    <longtitude>34.985614</longtitude>
    <Role>volunteer</Role>
    <IsActive>true</IsActive>
    <MaxDistance>75</MaxDistance>
    <DistanceType>driveDistance</DistanceType>
  </Volunteer>
  <Volunteer>
    <Id>328183934</Id>
    <FullName>Yael Bloch</FullName>
    <Phone>0534183542</Phone>
    <Email>yaelbloch2023@gmail.com</Email>
    <Password>[cgnB424</Password>
    <FullAdress>moshe zilberg 32</FullAdress>
    <Latitude>31.7610773</Latitude>
    <longtitude>35.1854477</longtitude>
    <Role>manager</Role>
    <IsActive>true</IsActive>
    <MaxDistance>100</MaxDistance>
    <DistanceType>driveDistance</DistanceType>
  </Volunteer>
  <Volunteer>
    <Id>324670397</Id>
    <FullName>Ouriel bloch</FullName>
    <Phone>0548440910</Phone>
    <Email>bloch@gmail.com</Email>
    <Password>qL,Lyh7|</Password>
    <FullAdress>moshe zilberg 28</FullAdress>
    <Latitude>31.7610773</Latitude>
    <longtitude>35.1854477</longtitude>
    <Role>volunteer</Role>
    <IsActive>true</IsActive>
    <MaxDistance>90</MaxDistance>
    <DistanceType>driveDistance</DistanceType>
  </Volunteer>

</ArrayOfVolunteer>