<?xml version="1.0" encoding="utf-8"?>
<ArrayOfVolunteer xmlns:xsi="http://www.w3.org/2001/XMLSchema-instance" xmlns:xsd="http://www.w3.org/2001/XMLSchema">
  <Volunteer>
    <Id>238431480</Id>
    <FullName>Racheli Tal </FullName>
    <Phone>0522597273</Phone>
    <Email>RacheliTal@gmail.com</Email>
    <Password>m:uKsAu|</Password>
    <FullAdress>orange 15</FullAdress>
    <Latitude>16.113895576951663</Latitude>
    <longtitude>179.96063975241185</longtitude>
    <Role>volunteer</Role>
    <IsActive>true</IsActive>
    <MaxDistance>51</MaxDistance>
    <DistanceType>driveDistance</DistanceType>
  </Volunteer>
  <Volunteer>
    <Id>289884710</Id>
    <FullName>Yael Bar</FullName>
    <Phone>0548999593</Phone>
    <Email>YaelBar@gmail.com</Email>
    <FullAdress>mango 32</FullAdress>
    <Latitude>54.9394845</Latitude>
    <longtitude>23.8920115</longtitude>
    <Role>manager</Role>
    <IsActive>true</IsActive>
    <MaxDistance>20</MaxDistance>
    <DistanceType>walkDistance</DistanceType>
  </Volunteer>
  <Volunteer>
    <Id>252959200</Id>
    <FullName>Hadas Shay</FullName>
    <Phone>0579425487</Phone>
    <Email>HadasShay@gmail.com</Email>
    <FullAdress>ananas 66</FullAdress>
    <Latitude>52.0657487</Latitude>
    <longtitude>4.2513769</longtitude>
    <Role>volunteer</Role>
    <IsActive>true</IsActive>
    <MaxDistance>30</MaxDistance>
    <DistanceType>walkDistance</DistanceType>
  </Volunteer>
  <Volunteer>
    <Id>268552296</Id>
    <FullName>David Mor</FullName>
    <Phone>0550268400</Phone>
    <Email>DavidMor@gmail.com</Email>
    <FullAdress>cherry 10</FullAdress>
    <Latitude>44.70311705</Latitude>
    <longtitude>-63.47192306284613</longtitude>
    <Role>volunteer</Role>
    <IsActive>false</IsActive>
    <MaxDistance>12</MaxDistance>
    <DistanceType>driveDistance</DistanceType>
  </Volunteer>
  <Volunteer>
    <Id>293856928</Id>
    <FullName>Daniel Zohar</FullName>
    <Phone>0514998354</Phone>
    <Email>DanielZohar@gmail.com</Email>
    <FullAdress>apple 21</FullAdress>
    <Latitude>53.4807919</Latitude>
    <longtitude>-2.582717457472178</longtitude>
    <Role>volunteer</Role>
    <IsActive>true</IsActive>
    <MaxDistance>10</MaxDistance>
    <DistanceType>walkDistance</DistanceType>
  </Volunteer>
</ArrayOfVolunteer>