<?xml version="1.0" encoding="utf-8"?>
<ArrayOfVolunteer xmlns:xsi="http://www.w3.org/2001/XMLSchema-instance" xmlns:xsd="http://www.w3.org/2001/XMLSchema">
  <Volunteer>
    <Id>225023761</Id>
    <FullName>Yael Bar</FullName>
    <Phone>0585535701</Phone>
    <Email>YaelBar@gmail.com</Email>
    <Password>X||{,th9</Password>
    <FullAdress>הרצל 1, תל אביב</FullAdress>
    <Latitude>32.070446</Latitude>
    <longtitude>34.794667</longtitude>
    <Role>manager</Role>
    <IsActive>false</IsActive>
    <MaxDistance>50</MaxDistance>
    <DistanceType>walkDistance</DistanceType>
  </Volunteer>
  <Volunteer>
    <Id>221997398</Id>
    <FullName>Racheli Tal </FullName>
    <Phone>0500823070</Phone>
    <Email>RacheliTal@gmail.com</Email>
    <Password>2su8gP5B</Password>
    <FullAdress>שדרות רוטשילד 16, תל אביב</FullAdress>
    <Latitude>32.062819</Latitude>
    <longtitude>34.774061</longtitude>
    <Role>volunteer</Role>
    <IsActive>true</IsActive>
    <MaxDistance>51</MaxDistance>
    <DistanceType>driveDistance</DistanceType>
  </Volunteer>
  <Volunteer>
    <Id>390709772</Id>
    <FullName>Hadas Shay</FullName>
    <Phone>0505357102</Phone>
    <Email>HadasShay@gmail.com</Email>
    <Password>l6CqPBYg</Password>
    <FullAdress>בן גוריון 22, רמת גן</FullAdress>
    <Latitude>32.084027</Latitude>
    <longtitude>34.812335</longtitude>
    <Role>volunteer</Role>
    <IsActive>false</IsActive>
    <MaxDistance>54</MaxDistance>
    <DistanceType>walkDistance</DistanceType>
  </Volunteer>
  <Volunteer>
    <Id>397856568</Id>
    <FullName>Shira Or</FullName>
    <Phone>0560039928</Phone>
    <Email>ShiraOr@gmail.com</Email>
    <Password>6S3k:,rq</Password>
    <FullAdress>דרך חיפה 101, חיפה</FullAdress>
    <Latitude>32.811834</Latitude>
    <longtitude>34.983419</longtitude>
    <Role>volunteer</Role>
    <IsActive>true</IsActive>
    <MaxDistance>59</MaxDistance>
    <DistanceType>airDistance</DistanceType>
  </Volunteer>
  <Volunteer>
    <Id>283623460</Id>
    <FullName>Daniel Zohar</FullName>
    <Phone>0536707837</Phone>
    <Email>DanielZohar@gmail.com</Email>
    <Password>g:PdCBIv</Password>
    <FullAdress>ויצמן 19, כפר סבא</FullAdress>
    <Latitude>32.174547</Latitude>
    <longtitude>34.905562</longtitude>
    <Role>volunteer</Role>
    <IsActive>false</IsActive>
    <MaxDistance>66</MaxDistance>
    <DistanceType>walkDistance</DistanceType>
  </Volunteer>
  <Volunteer>
    <Id>372219790</Id>
    <FullName>David Mor</FullName>
    <Phone>0507136329</Phone>
    <Email>DavidMor@gmail.com</Email>
    <Password>Olio\2'K</Password>
    <FullAdress>שדרות הנשיא 15, חיפה</FullAdress>
    <Latitude>32.80246</Latitude>
    <longtitude>34.985614</longtitude>
    <Role>volunteer</Role>
    <IsActive>true</IsActive>
    <MaxDistance>75</MaxDistance>
    <DistanceType>driveDistance</DistanceType>
  </Volunteer>
</ArrayOfVolunteer>